{
  "name": "Hamirpur",
  "description": "Hamirpur is a district in Himachal Pradesh known for its educational institutions, temples, and scenic beauty. The district is famous for its traditional festivals and the Sujanpur Tira Fort.",
  "coverImage": "/images/districts/hamirpur-cover.jpg",
  "summary": "A perfect blend of education, culture, and nature",
  "locations": [
    {
      "id": "hamirpur-sujanpur",
      "name": "Sujanpur Tira Fort",
      "description": "Historic fort known for its murals and architectural beauty.",
      "image": "/images/locations/sujanpur.jpg",
      "category": "Heritage",
      "rating": 4.6,
      "address": "Sujanpur, Hamirpur District, Himachal Pradesh",
      "hours": "9:00 AM - 5:00 PM",
      "phone": null
    },
    {
      "id": "hamirpur-deotsidh",
      "name": "Deotsidh Temple",
      "description": "Ancient temple dedicated to Baba Balak Nath, known for its religious significance.",
      "image": "/images/locations/deotsidh.jpg",
      "category": "Temple",
      "rating": 4.7,
      "address": "Deotsidh, Hamirpur District, Himachal Pradesh",
      "hours": "5:00 AM - 9:00 PM",
      "phone": null
    },
    {
      "id": "hamirpur-nadaun",
      "name": "Nadaun",
      "description": "Historic town known for its temples and scenic views of the Beas River.",
      "image": "/images/locations/nadaun.jpg",
      "category": "Heritage",
      "rating": 4.4,
      "address": "Nadaun, Hamirpur District, Himachal Pradesh",
      "hours": "Open 24/7",
      "phone": null
    },
    {
      "id": "hamirpur-awadevi",
      "name": "Awadevi Temple",
      "description": "Ancient temple dedicated to Goddess Awadevi, known for its architectural beauty.",
      "image": "/images/locations/awadevi.jpg",
      "category": "Temple",
      "rating": 4.5,
      "address": "Awadevi, Hamirpur District, Himachal Pradesh",
      "hours": "6:00 AM - 8:00 PM",
      "phone": null
    },
    {
      "id": "hamirpur-galore",
      "name": "Galore Wildlife Sanctuary",
      "description": "Protected area known for its diverse flora and fauna, offering trekking opportunities.",
      "image": "/images/locations/galore.jpg",
      "category": "Wildlife",
      "rating": 4.3,
      "address": "Galore, Hamirpur District, Himachal Pradesh",
      "hours": "6:00 AM - 6:00 PM",
      "phone": null
    }
  ]
} 