{
  "name": "Kangra",
  "description": "Kangra is one of the most picturesque districts of Himachal Pradesh, known for its ancient temples, tea gardens, and the majestic Dhauladhar range. The district is home to the famous Kangra Fort and numerous Buddhist monasteries.",
  "coverImage": "/images/districts/kangra-cover.jpg",
  "summary": "A blend of ancient heritage and natural beauty",
  "locations": [
    {
      "id": "kangra-fort",
      "name": "Kangra Fort",
      "description": "One of the oldest forts in India, offering panoramic views of the Kangra Valley.",
      "image": "/images/locations/kangra-fort.jpg",
      "category": "Heritage",
      "rating": 4.7,
      "address": "Kangra Fort Road, Kangra, Himachal Pradesh",
      "hours": "9:00 AM - 5:00 PM",
      "phone": "+91-1892-225001"
    },
    {
      "id": "kangra-mcleodganj",
      "name": "McLeod Ganj",
      "description": "Home to the Dalai Lama and a vibrant Tibetan community, known for its monasteries and cafes.",
      "image": "/images/locations/mcleodganj.jpg",
      "category": "Hill Station",
      "rating": 4.8,
      "address": "McLeod Ganj, Dharamshala, Kangra District",
      "hours": "Open 24/7",
      "phone": null
    },
    {
      "id": "kangra-triund",
      "name": "Triund Trek",
      "description": "Popular trekking destination offering stunning views of the Dhauladhar range.",
      "image": "/images/locations/triund.jpg",
      "category": "Adventure",
      "rating": 4.6,
      "address": "Triund, Dharamshala, Kangra District",
      "hours": "Best time: March to June, September to November",
      "phone": null
    },
    {
      "id": "kangra-baijnath",
      "name": "Baijnath Temple",
      "description": "Ancient Shiva temple known for its architectural beauty and religious significance.",
      "image": "/images/locations/baijnath.jpg",
      "category": "Temple",
      "rating": 4.5,
      "address": "Baijnath, Kangra District, Himachal Pradesh",
      "hours": "6:00 AM - 8:00 PM",
      "phone": null
    },
    {
      "id": "kangra-palampur",
      "name": "Palampur",
      "description": "Famous for its tea gardens and scenic beauty, offering various adventure activities.",
      "image": "/images/locations/palampur.jpg",
      "category": "Hill Station",
      "rating": 4.4,
      "address": "Palampur, Kangra District, Himachal Pradesh",
      "hours": "Open 24/7",
      "phone": "+91-1894-230337"
    }
  ]
} 