{
  "name": "Shimla",
  "description": "Shimla is the capital city of Himachal Pradesh and one of India's most popular hill stations. Known for its colonial architecture, scenic beauty, and pleasant climate, it offers a perfect blend of history, culture, and natural beauty.",
  "coverImage": "/images/districts/shimla-cover.jpg",
  "summary": "The Queen of Hill Stations",
  "locations": [
    {
      "id": "shimla-ridge",
      "name": "The Ridge",
      "description": "The heart of Shimla, offering panoramic views of the mountains and a vibrant atmosphere.",
      "image": "/images/locations/ridge.jpg",
      "category": "Landmark",
      "rating": 4.8,
      "address": "The Ridge, Shimla, Himachal Pradesh",
      "hours": "Open 24/7",
      "phone": null
    },
    {
      "id": "shimla-mall-road",
      "name": "Mall Road",
      "description": "Famous shopping street with colonial architecture, cafes, and shops.",
      "image": "/images/locations/mall-road.jpg",
      "category": "Shopping",
      "rating": 4.7,
      "address": "Mall Road, Shimla, Himachal Pradesh",
      "hours": "9:00 AM - 9:00 PM",
      "phone": null
    },
    {
      "id": "shimla-christ-church",
      "name": "Christ Church",
      "description": "Second oldest church in North India, known for its neo-gothic architecture.",
      "image": "/images/locations/christ-church.jpg",
      "category": "Heritage",
      "rating": 4.6,
      "address": "The Ridge, Shimla, Himachal Pradesh",
      "hours": "8:00 AM - 6:00 PM",
      "phone": null
    },
    {
      "id": "shimla-jakhu",
      "name": "Jakhu Temple",
      "description": "Ancient temple dedicated to Lord Hanuman, offering panoramic views of Shimla.",
      "image": "/images/locations/jakhu.jpg",
      "category": "Temple",
      "rating": 4.5,
      "address": "Jakhu Hill, Shimla, Himachal Pradesh",
      "hours": "6:00 AM - 8:00 PM",
      "phone": null
    },
    {
      "id": "shimla-kufri",
      "name": "Kufri",
      "description": "Popular skiing destination with scenic views and adventure activities.",
      "image": "/images/locations/kufri.jpg",
      "category": "Adventure",
      "rating": 4.4,
      "address": "Kufri, Shimla District, Himachal Pradesh",
      "hours": "Open 24/7",
      "phone": null
    }
  ]
}
